City_ID,City,Cloudiness,Country,Date,Humidity,Lat,Lng,Max Temp,Wind Speed
0,fortuna,20,ES,1523878200,37,38.18,-1.13,71.6,19.46
1,hobyo,68,SO,1523880132,94,5.35,48.53,82.34,3.62
2,jamestown,80,AU,1523880032,86,-33.21,138.6,58.94,4.74
3,arraial do cabo,0,BR,1523876400,78,-22.97,-42.02,75.2,8.05
4,khatanga,0,RU,1523880133,68,71.98,102.47,9.62,5.97
5,busselton,0,AU,1523880133,98,-33.64,115.35,69.02,4.85
6,mataura,100,NZ,1523880134,76,-46.19,168.86,50.21,14.7
7,tairua,56,NZ,1523880134,86,-37.02,175.85,62.99,6.64
8,salalah,20,OM,1523875800,66,17.01,54.1,86.0,13.87
9,georgetown,90,GY,1523876400,100,6.8,-58.16,71.6,9.17
10,tsiroanomandidy,20,MG,1523880135,49,-18.77,46.05,83.6,5.41
11,udachnyy,76,RU,1523880027,74,66.42,112.4,29.06,4.41
12,shestakovo,48,RU,1523880135,55,56.49,103.96,39.05,5.75
13,waipawa,8,NZ,1523880136,86,-39.94,176.59,53.81,16.04
14,rikitea,44,PF,1523880136,100,-23.12,-134.97,78.65,17.83
15,san nicolas,100,HN,1523880136,99,14.94,-88.33,63.62,2.17
16,mar del plata,80,AR,1523880137,51,-46.43,-67.52,62.54,9.89
17,bluff,48,AU,1523880137,56,-23.58,149.07,78.92,6.31
18,ushuaia,90,AR,1523876400,87,-54.81,-68.31,42.8,2.73
19,hermanus,0,ZA,1523880137,35,-34.42,19.24,87.56,3.51
20,rundu,12,NA,1523880138,47,-17.91,19.77,85.22,7.99
21,arona,0,IT,1523877600,40,45.76,8.56,69.8,6.93
22,bandarbeyla,0,SO,1523880138,100,9.49,50.81,84.32,12.8
23,ribeira grande,75,PT,1523878200,82,38.52,-28.7,60.8,28.86
24,coos bay,90,US,1523879760,93,43.37,-124.22,41.0,5.82
25,geraldton,90,CA,1523876400,78,49.72,-86.95,14.0,13.87
26,hobart,20,AU,1523877120,45,-42.88,147.33,48.2,20.8
27,hilo,90,US,1523878980,94,19.71,-155.08,73.4,3.36
28,margate,20,AU,1523877120,45,-43.03,147.26,48.2,20.8
29,lagoa,20,PT,1523878200,77,37.14,-8.45,59.0,9.17
30,port augusta,40,AU,1523876400,72,-32.49,137.76,64.4,8.05
31,albany,90,US,1523879460,86,42.65,-73.75,33.8,5.82
32,castro,92,CL,1523880141,100,-42.48,-73.76,50.39,5.19
33,leningradskiy,68,RU,1523880141,94,69.38,178.42,30.14,19.28
34,port lincoln,88,AU,1523880142,96,-34.72,135.86,63.89,7.76
35,cabo san lucas,0,MX,1523880050,100,22.89,-109.91,66.59,8.77
36,isangel,8,VU,1523880142,99,-19.55,169.27,79.46,19.73
37,hambantota,56,LK,1523880142,100,6.12,81.12,80.63,3.62
38,namatanai,32,PG,1523880142,96,-3.66,152.44,84.5,10.33
39,petatlan,0,MX,1523880143,89,17.52,-101.27,77.93,5.97
40,zhanaozen,56,KZ,1523880143,65,43.35,52.85,55.07,10.0
41,bodden town,20,KY,1523876400,94,19.28,-81.25,78.8,4.7
42,saint-philippe,90,CA,1523877900,92,45.36,-73.48,32.0,18.34
43,limoux,80,FR,1523878200,71,43.05,2.22,68.0,14.99
44,punta arenas,90,CL,1523876400,93,-53.16,-70.91,42.8,3.36
45,honiara,40,SB,1523876400,94,-9.43,159.96,77.0,2.24
46,puerto ayora,76,EC,1523880145,100,-0.74,-90.35,70.1,5.19
47,lebu,40,ET,1523876400,38,8.96,38.73,77.0,11.41
48,constitucion,0,MX,1523880145,71,23.99,-104.67,38.51,2.51
49,bredasdorp,0,ZA,1523876400,51,-34.53,20.04,80.6,11.41
50,hinton,92,CA,1523879901,92,53.4,-117.57,27.8,3.29
51,vostok,0,RU,1523880146,71,46.45,135.83,31.85,3.96
52,faanui,88,PF,1523880146,98,-16.48,-151.75,83.42,11.01
53,vilhena,75,BR,1523876400,100,-12.74,-60.15,68.0,6.93
54,dikson,80,RU,1523880147,95,73.51,80.55,6.47,20.96
55,deputatskiy,44,RU,1523880147,75,69.3,139.9,10.34,2.73
56,mount gambier,8,AU,1523880147,85,-37.83,140.78,50.57,4.63
57,severo-kurilsk,76,RU,1523880147,100,50.68,156.12,28.79,23.09
58,japura,88,ID,1523880147,93,-0.42,102.29,77.93,1.95
59,paamiut,0,GL,1523880148,100,61.99,-49.67,27.17,16.37
60,port alfred,12,ZA,1523880148,77,-33.59,26.89,75.77,15.59
61,chokurdakh,0,RU,1523880148,69,70.62,147.9,1.7,7.43
62,grand gaube,75,MU,1523876400,78,-20.01,57.66,82.4,11.41
63,ixtapa,5,MX,1523875620,100,20.71,-105.21,64.4,4.7
64,qasigiannguit,5,GL,1523879400,56,68.82,-51.19,12.2,4.7
65,broken hill,0,AU,1523880149,79,-31.97,141.45,63.17,9.66
66,tasiilaq,90,GL,1523879400,86,65.61,-37.64,39.2,25.28
67,butaritari,68,KI,1523880149,100,3.07,172.79,81.8,5.53
68,taos,1,US,1523879760,42,36.41,-105.57,26.6,3.36
69,new norfolk,20,AU,1523877120,45,-42.78,147.06,48.2,20.8
70,nkoteng,0,CM,1523880150,68,4.5,12.12,88.46,4.41
71,van buren,90,US,1523876160,41,47.16,-67.94,26.6,6.93
72,ponta do sol,92,BR,1523880151,68,-20.63,-46.0,71.09,11.9
73,johi,0,PK,1523880151,18,26.69,67.61,98.81,11.56
74,cherskiy,76,RU,1523880151,70,68.75,161.3,14.84,5.97
75,avarua,75,CK,1523876400,78,-21.21,-159.78,75.2,2.24
76,champerico,40,MX,1523875200,68,16.38,-93.6,64.4,8.05
77,upernavik,12,GL,1523880152,100,72.79,-56.15,4.94,16.49
78,mackenzie,90,CA,1523876400,55,55.34,-123.09,33.8,9.17
79,gat,0,SN,1523876400,33,14.69,-16.54,87.8,8.43
80,gwadar,0,PK,1523880153,55,25.12,62.33,89.45,16.71
81,hammerfest,40,NO,1523877600,100,70.66,23.68,41.0,3.36
82,avera,1,US,1523878500,75,33.19,-82.53,44.6,16.11
83,saldanha,12,PT,1523880153,58,41.42,-6.55,57.5,5.08
84,kharagpur,0,IN,1523880154,49,22.34,87.3,93.14,3.06
85,cape town,0,ZA,1523876400,33,-33.93,18.42,86.0,14.99
86,bathsheba,40,BB,1523876400,78,13.22,-59.52,78.8,19.46
87,kodinsk,88,RU,1523880154,58,58.6,99.18,40.22,6.31
88,nikolskoye,75,RU,1523878200,66,59.7,30.79,53.6,8.95
89,sola,75,NO,1523877600,71,58.89,5.65,51.8,10.29
90,victoria,75,BN,1523878200,88,5.28,115.24,84.2,4.7
91,kaabong,92,UG,1523880155,92,3.51,34.14,68.03,5.97
92,acapulco,40,MX,1523875440,78,16.86,-99.88,75.2,3.51
93,brae,75,GB,1523879400,93,60.4,-1.35,46.4,21.92
94,alice springs,0,AU,1523876400,35,-23.7,133.88,69.8,6.93
95,barrow,24,AR,1523880156,72,-38.31,-60.23,65.06,18.05
96,grindavik,75,IS,1523878200,76,63.84,-22.43,51.8,17.22
97,qaanaaq,24,GL,1523880156,82,77.48,-69.36,-5.41,6.42
98,porbandar,0,IN,1523880157,38,21.64,69.61,91.52,14.03
99,oranjemund,0,ZA,1523880157,92,-28.55,16.43,64.88,3.96
100,aksarka,48,RU,1523880157,87,66.56,67.8,10.34,10.11
101,buta,0,CD,1523880157,43,2.79,24.73,93.86,4.18
102,kodiak,20,US,1523875980,79,39.95,-94.76,26.6,12.75
103,alto araguaia,88,BR,1523880158,95,-17.32,-53.22,68.39,11.34
104,anadyr,90,RU,1523876400,92,64.73,177.51,33.8,40.26
105,atuona,48,PF,1523880158,100,-9.8,-139.03,78.83,13.47
106,umea,0,SE,1523877600,49,63.83,20.26,46.4,4.7
107,tabou,32,CI,1523880159,99,4.42,-7.36,82.79,9.55
108,baoning,0,CN,1523876400,59,25.34,110.03,66.2,2.24
109,amlame,0,TG,1523880159,67,7.47,0.9,92.96,6.2
110,clyde river,90,CA,1523876400,84,70.47,-68.59,-0.41,3.36
111,presidente franco,0,PY,1523876400,88,-25.57,-54.62,69.8,2.24
112,miguel auza,8,MX,1523880160,65,24.29,-103.45,43.46,9.44
113,ewa beach,90,US,1523877660,88,21.32,-158.01,75.2,5.82
114,calvinia,92,ZA,1523880161,56,-31.47,19.78,70.55,10.22
115,igrim,76,RU,1523880161,58,63.19,64.42,21.5,8.66
116,tandil,44,AR,1523880161,94,-37.33,-59.14,58.94,12.35
117,thompson,40,CA,1523876400,45,55.74,-97.86,23.0,3.36
118,dauphin,1,CA,1523876400,79,51.15,-100.04,23.0,3.36
119,katsuura,0,JP,1523876400,58,33.93,134.5,55.4,3.36
120,lipin bor,0,RU,1523880162,80,60.26,37.97,48.68,2.17
121,kavieng,56,PG,1523880162,98,-2.57,150.8,85.67,10.67
122,nome,1,US,1523877300,87,30.04,-94.42,44.6,2.62
123,hithadhoo,76,MV,1523880163,100,-0.6,73.08,85.22,10.78
124,dunedin,64,NZ,1523880163,77,-45.87,170.5,47.51,10.33
125,cockburn town,68,TC,1523880163,99,21.46,-71.14,77.66,19.06
126,pindiga,48,NG,1523880164,29,9.98,10.93,100.7,6.53
127,pevek,36,RU,1523880164,61,69.7,170.27,21.32,11.45
128,tuktoyaktuk,0,CA,1523876400,58,69.44,-133.03,3.2,27.51
129,sur,0,OM,1523880164,77,22.57,59.53,85.76,5.53
130,starozhilovo,8,RU,1523880165,53,54.23,39.91,65.33,10.33
131,mortka,20,RU,1523880165,67,59.33,66.02,27.35,6.42
132,hami,0,CN,1523880165,30,42.84,93.51,72.98,4.74
133,lavrentiya,92,RU,1523880165,95,65.58,-170.99,30.86,15.82
134,anyksciai,80,LT,1523880165,64,55.53,25.1,70.82,9.44
135,meulaboh,92,ID,1523880166,100,4.14,96.13,77.03,3.06
136,lesu,0,NG,1523880166,56,9.83,4.39,96.29,8.21
137,yellowknife,90,CA,1523876400,78,62.45,-114.38,12.2,9.17
138,sitka,0,US,1523880166,79,37.17,-99.65,24.56,6.64
139,puerto colombia,40,CO,1523877900,100,10.99,-74.96,78.8,8.05
140,laguna,0,MX,1523880167,72,27.52,-110.01,54.44,2.39
141,iqaluit,20,CA,1523876400,77,63.75,-68.52,6.8,6.93
142,pimentel,76,BR,1523880167,97,-3.7,-45.5,77.03,3.18
143,saint george,40,GR,1523877600,63,39.45,22.34,64.4,6.93
144,campobasso,20,IT,1523880168,49,41.56,14.66,68.57,3.4
145,nicoya,0,CR,1523879887,91,10.15,-85.45,71.09,7.65
146,port elizabeth,90,US,1523879700,93,39.31,-74.98,60.8,10.29
147,namibe,76,AO,1523880168,97,-15.19,12.15,80.09,4.18
148,puerto madryn,80,AR,1523880169,80,-42.77,-65.04,66.41,20.18
149,san patricio,0,PY,1523880169,87,-26.98,-56.83,70.01,3.06
150,adre,0,TD,1523880169,14,13.47,22.2,101.06,9.66
151,mikkeli,75,FI,1523879400,71,61.69,27.27,50.0,3.36
152,sistranda,0,NO,1523877600,35,63.73,8.83,57.2,12.75
153,nileshwar,32,IN,1523880170,99,12.25,75.1,86.3,7.76
154,nazarovo,44,RU,1523880170,76,56.01,90.42,44.18,5.86
155,ocos,5,GT,1523875200,94,14.51,-92.19,71.6,4.97
156,provideniya,92,RU,1523880171,94,64.42,-173.23,30.86,18.16
157,samarai,12,PG,1523880171,100,-10.62,150.67,82.97,11.56
158,chantada,75,ES,1523878200,71,42.61,-7.77,53.6,14.99
159,minot,1,US,1523879640,73,48.23,-101.3,19.4,5.82
160,ostrovnoy,80,RU,1523880171,100,68.05,39.51,31.67,6.53
161,copacabana,75,CO,1523876400,88,6.35,-75.51,66.2,2.24
162,zhezkazgan,0,KZ,1523878200,21,47.8,67.71,59.0,20.13
163,carnarvon,88,ZA,1523880172,71,-30.97,22.13,67.49,10.67
164,pisco,32,PE,1523876400,88,-13.71,-76.2,62.6,1.12
165,bo phloi,8,TH,1523880173,75,14.32,99.52,85.22,3.74
166,portree,36,GB,1523880173,91,57.41,-6.19,48.05,15.14
167,tomball,1,US,1523878500,67,30.1,-95.62,55.4,4.7
168,faya,40,SA,1523876400,34,18.39,42.45,82.4,11.41
169,novyy urgal,0,RU,1523880173,57,51.07,132.56,36.8,5.75
170,east london,0,ZA,1523876400,69,-33.02,27.91,75.2,19.46
171,ancud,92,CL,1523880174,98,-41.87,-73.83,51.65,6.53
172,bambous virieux,75,MU,1523876400,78,-20.34,57.76,82.4,11.41
173,victor harbor,75,AU,1523876400,77,-35.55,138.62,64.4,6.93
174,bonthe,8,SL,1523880175,64,7.53,-12.5,89.81,5.64
175,pokrovsk,44,UA,1523880175,32,48.28,37.18,66.59,14.14
176,teguldet,92,RU,1523880175,99,57.31,88.17,37.25,6.98
177,torbay,20,CA,1523876400,58,47.66,-52.73,30.2,29.97
178,krasnoturansk,0,RU,1523878200,28,54.32,91.57,55.4,6.71
179,carutapera,20,BR,1523880176,93,-1.2,-46.02,81.17,5.19
180,sete,100,NP,1523880176,98,27.58,86.44,47.96,0.72
181,lanxi,92,CN,1523880176,76,29.21,119.46,52.1,2.39
182,kapaa,40,US,1523878260,100,22.08,-159.32,75.2,12.01
183,kudahuvadhoo,36,MV,1523880177,100,2.67,72.89,85.22,4.97
184,tiksi,92,RU,1523880177,91,71.64,128.87,20.96,8.43
185,thayetmyo,80,MM,1523880177,34,19.32,95.18,93.14,5.64
186,shelburne,90,CA,1523879040,100,44.08,-80.2,33.8,13.87
187,camenca,24,MD,1523880177,40,47.82,27.37,70.64,21.07
188,cabedelo,90,BR,1523876400,94,-6.97,-34.84,73.4,11.41
189,necochea,68,AR,1523880178,89,-38.55,-58.74,61.82,15.48
190,evanston,90,US,1523879160,86,42.04,-87.69,30.2,12.75
191,new milford,90,US,1523879760,87,40.94,-74.02,48.2,24.16
192,kaitong,48,CN,1523880179,27,44.81,123.15,66.41,18.05
193,novikovo,20,UA,1523880179,74,45.05,34.56,57.32,6.76
194,simplicio mendes,0,BR,1523880179,55,-7.85,-41.91,83.24,12.68
195,maragogi,88,BR,1523879980,98,-9.01,-35.22,78.56,5.64
196,tautira,40,PF,1523878200,88,-17.73,-149.15,75.2,13.87
197,narasimharajapura,0,IN,1523880180,100,13.61,75.51,82.34,3.18
198,aztec,1,US,1523879580,31,36.82,-107.99,46.4,8.05
199,cururupu,56,BR,1523880180,92,-1.82,-44.87,82.88,3.4
200,ekhabi,8,RU,1523880180,84,53.51,142.97,24.29,3.51
201,holzkirchen,75,DE,1523879400,82,47.88,11.7,59.0,8.05
202,north bend,90,US,1523879760,93,43.41,-124.22,41.0,5.82
203,turangi,8,NZ,1523880181,100,-39.0,175.93,49.94,11.34
204,rorvik,0,NO,1523877600,72,64.86,11.24,57.2,10.29
205,cascais,40,PT,1523878200,72,38.7,-9.42,60.8,10.29
206,outlook,12,CA,1523880104,86,51.48,-107.04,31.76,14.36
207,maniitsoq,0,GL,1523880182,81,65.42,-52.9,16.55,4.18
208,lebanon,90,US,1523879760,98,43.64,-72.25,32.0,5.82
209,saskylakh,0,RU,1523880182,75,71.97,114.09,13.49,6.98
210,hamilton,90,CA,1523879040,100,43.26,-79.87,37.4,13.87
211,eureka,90,US,1523878500,100,40.8,-124.16,44.6,6.93
212,baruun-urt,56,MN,1523880183,46,46.68,113.28,49.94,18.5
213,airai,8,TL,1523880184,76,-8.93,125.41,73.16,2.17
214,mehamn,0,NO,1523875800,74,71.03,27.85,37.4,4.7
215,portland,90,US,1523879580,100,45.52,-122.67,42.8,16.11
216,riverton,40,US,1523878500,41,43.02,-108.38,39.2,12.75
217,bereda,40,ES,1523878200,67,43.27,-7.54,57.2,18.34
218,tuatapere,92,NZ,1523880185,100,-46.13,167.69,55.34,18.61
219,denpasar,36,ID,1523880157,100,-8.65,115.22,74.24,0.6
220,yulara,92,AU,1523876400,24,-25.24,130.99,78.8,5.82
221,shache,20,CN,1523880186,21,38.42,77.24,73.97,4.74
222,comodoro rivadavia,0,AR,1523876400,55,-45.87,-67.48,66.2,4.7
223,baiyin,0,CN,1523876400,8,36.55,104.13,68.0,6.71
224,camacha,40,PT,1523878200,72,33.08,-16.33,68.0,9.17
225,saint pete beach,90,US,1523878500,67,27.73,-82.74,66.2,10.29
226,kruisfontein,36,ZA,1523880187,70,-34.0,24.73,74.06,14.25
227,bassano,56,CA,1523880187,90,50.79,-112.47,23.48,7.54
228,wamba,8,CD,1523880187,43,2.14,27.99,89.0,3.18
229,tondano,75,ID,1523878200,94,1.3,124.91,78.8,1.12
230,zalantun,0,CN,1523880187,82,48.0,122.72,40.04,1.95
231,kahului,20,US,1523876160,83,20.89,-156.47,73.4,12.75
232,nurota,12,UZ,1523878200,22,40.56,65.69,69.8,6.93
233,khorixas,32,NA,1523880188,100,-20.37,14.96,77.66,2.84
234,zhaozhou,48,CN,1523880188,30,45.71,125.27,60.83,18.05
235,esso,48,RU,1523880189,71,55.93,158.7,8.0,1.95
236,chontalpa,92,MX,1523880189,62,17.7,-93.52,72.53,5.64
237,mahina,0,ML,1523880189,24,13.76,-10.85,100.61,6.98
238,kamaishi,0,JP,1523880189,76,39.28,141.86,40.49,6.2
239,colwyn bay,75,GB,1523879400,54,53.29,-3.71,57.2,19.46
240,police,75,PL,1523878200,93,53.55,14.57,48.2,6.93
241,vaini,44,IN,1523880190,79,15.34,74.49,80.81,2.51
242,ulladulla,8,AU,1523876400,52,-35.36,150.48,68.0,19.46
243,mahebourg,75,MU,1523876400,78,-20.41,57.7,82.4,11.41
244,abha,40,SA,1523876400,34,18.22,42.5,82.4,11.41
245,manggar,88,ID,1523880191,100,-2.88,108.27,78.92,0.6
246,pacific grove,75,US,1523878500,93,36.62,-121.92,51.8,8.05
247,sanmenxia,0,CN,1523880191,56,34.77,111.19,55.7,3.4
248,boyolangu,88,ID,1523880191,98,-8.09,111.9,72.08,1.39
249,umm lajj,0,SA,1523880192,51,25.02,37.27,88.55,10.67
250,taoudenni,0,ML,1523880192,14,22.68,-3.98,86.48,13.13
251,chipata,32,ZM,1523880192,57,-13.64,32.65,78.29,9.78
252,belaya gora,0,RU,1523880192,67,68.54,146.19,5.3,7.43
253,hoi an,20,VN,1523876400,78,15.88,108.33,77.0,17.22
254,dulce grande,5,MX,1523875320,49,23.0,-102.17,46.4,6.93
255,kiama,56,AU,1523876400,52,-34.67,150.86,68.0,19.46
256,tual,36,ID,1523880193,99,-5.67,132.75,84.59,12.91
257,sibolga,92,ID,1523880193,100,1.74,98.78,70.55,1.61
258,isla aguada,75,MX,1523876400,64,18.78,-91.49,73.4,3.36
259,pangnirtung,40,CA,1523876400,77,66.15,-65.72,-2.21,5.86
260,port-gentil,40,GA,1523876400,74,-0.72,8.78,86.0,6.93
261,souillac,90,FR,1523878200,59,45.6,-0.6,60.8,3.36
262,basco,90,US,1523878560,74,40.33,-91.2,28.4,18.34
263,norman wells,5,CA,1523876400,69,65.28,-126.83,-13.01,5.82
264,trelew,20,AR,1523880195,59,-43.25,-65.31,69.92,16.26
265,nanortalik,0,GL,1523880195,100,60.14,-45.24,28.88,12.24
266,sangmelima,8,CM,1523880195,69,2.93,11.98,85.85,3.06
267,guerrero negro,76,MX,1523880195,100,27.97,-114.04,51.29,1.39
268,aswan,0,EG,1523876400,10,24.09,32.9,95.0,8.05
269,sungaipenuh,92,ID,1523880196,94,-2.08,101.38,69.74,0.94
270,saint-pierre,20,FR,1523878200,62,48.95,4.24,60.8,8.05
271,along,12,IN,1523880197,76,28.17,94.8,67.67,0.38
272,lompoc,20,US,1523878560,100,34.64,-120.46,50.0,11.68
273,chapais,90,CA,1523876400,45,49.78,-74.86,24.8,18.34
274,junin,0,PE,1523876400,66,-16.45,-71.58,48.2,3.36
275,richards bay,56,ZA,1523880198,83,-28.77,32.06,73.07,4.52
276,yabrud,0,SY,1523880000,10,33.97,36.66,80.6,11.41
277,maribo,36,DK,1523880198,92,54.78,11.5,46.34,1.28
278,poum,90,MK,1523878200,62,41.28,20.71,59.0,10.29
279,forestville,75,CA,1523876400,57,48.74,-69.09,21.2,8.05
280,cidreira,0,BR,1523880199,75,-30.17,-50.22,72.44,11.01
281,ajaccio,0,FR,1523878200,77,41.93,8.74,73.4,8.05
282,seoul,0,KR,1523876400,40,37.57,126.98,57.2,2.24
283,wellington,0,NZ,1523878200,48,-41.29,174.78,60.8,13.87
284,carberry,75,CA,1523876400,85,49.87,-99.36,17.6,2.24
285,caldwell,90,US,1523879580,75,43.67,-116.69,46.4,8.05
286,port blair,8,IN,1523880003,100,11.67,92.75,85.94,2.73
287,ilulissat,5,GL,1523879400,56,69.22,-51.1,12.2,4.7
288,tucupita,92,VE,1523880201,95,9.06,-62.05,76.49,4.63
289,ingham,76,AU,1523880201,92,-18.65,146.16,78.83,10.56
290,san cristobal,75,EC,1523876400,93,-0.39,-78.55,50.0,3.36
291,gbarnga,0,LR,1523880201,72,7.0,-9.47,88.82,5.41
292,colombia,8,CO,1523880001,78,3.38,-74.8,66.95,2.28
293,westport,75,IE,1523878200,81,53.8,-9.52,48.2,21.92
294,zyrardow,0,PL,1523878200,53,52.05,20.45,71.6,8.05
295,sao joao do piaui,0,BR,1523880175,65,-8.36,-42.25,80.36,14.36
296,port shepstone,24,ZA,1523880202,91,-30.74,30.45,72.62,11.68
297,ozuluama,0,MX,1523880202,91,21.12,-98.35,50.66,2.28
298,henties bay,36,NA,1523880203,80,-22.12,14.28,77.3,7.2
299,koumac,36,NC,1523880203,92,-20.56,164.28,74.87,4.74
300,sakhnovshchyna,8,UA,1523880203,43,49.15,35.87,73.61,11.56
301,fairbanks,1,US,1523876280,48,64.84,-147.72,23.0,8.05
302,marsh harbour,24,BS,1523880204,98,26.54,-77.06,76.76,21.74
303,sesheke,20,NA,1523876400,58,-17.47,24.29,84.2,3.36
304,leh,68,IN,1523880204,94,34.16,77.58,19.43,1.39
305,barcelona,20,ES,1523878200,77,41.38,2.18,62.6,13.87
306,kinsale,75,IE,1523878200,100,51.71,-8.52,48.2,25.28
307,kirakira,80,SB,1523880205,100,-10.46,161.92,82.97,15.59
308,drabiv,0,UA,1523880205,67,49.96,32.14,71.36,9.78
309,winslow,20,GB,1523879760,62,51.94,-0.88,55.4,18.34
310,klaksvik,76,FO,1523879400,93,62.23,-6.59,44.6,21.92
311,berwick,90,US,1523879640,86,41.06,-76.25,44.6,12.75
312,windhoek,75,NA,1523876400,64,-22.57,17.08,71.6,8.05
313,caohe,0,CN,1523880206,43,32.93,105.08,56.06,1.95
314,lewistown,75,US,1523878860,74,40.39,-90.15,30.2,12.75
315,heinola,75,FI,1523879400,87,61.2,26.03,51.8,6.93
316,sung noen,20,TH,1523876400,55,14.9,101.82,91.4,5.82
317,inhambane,75,MZ,1523876400,45,-23.87,35.38,84.2,16.11
318,half moon bay,75,US,1523878800,87,37.46,-122.43,50.0,3.36
319,ibotirama,8,BR,1523880208,93,-12.18,-43.22,76.22,4.41
320,vung tau,20,VN,1523876400,70,10.35,107.08,87.8,11.41
321,cayenne,75,GF,1523878200,74,4.94,-52.33,82.4,11.41
322,svobodnyy,32,RU,1523880209,55,53.85,40.53,64.7,10.78
323,sovetskaya,36,RU,1523880209,35,44.78,41.17,58.58,5.41
324,soyo,20,AO,1523880209,59,-6.13,12.37,90.71,4.07
325,bethel,90,US,1523878500,100,60.79,-161.76,33.8,5.82
326,nizhnyaya omka,0,RU,1523880210,93,55.43,74.94,36.26,19.28
327,mayumba,36,GA,1523880210,100,-3.44,10.65,80.54,3.74
328,zambezi,0,ZM,1523880210,55,-13.55,23.12,84.68,10.11
329,bowen,0,AU,1523876400,94,-20.01,148.25,73.4,2.24
330,buenos aires,75,AR,1523876400,82,-34.61,-58.44,68.0,10.29
331,russell,0,AR,1523876400,93,-33.01,-68.8,51.8,3.36
332,nalut,0,LY,1523880212,43,31.86,10.98,73.43,4.41
333,karratha,0,AU,1523879964,27,-20.74,116.85,80.36,7.43
334,dalbandin,0,PK,1523880212,12,28.9,64.41,86.84,13.69
335,dickinson,1,US,1523876160,79,46.88,-102.79,24.8,16.11
336,luderitz,80,NA,1523880212,95,-26.65,15.16,66.23,4.74
337,manaus,75,BR,1523880000,88,-3.13,-59.98,77.0,2.24
338,talnakh,76,RU,1523880213,91,69.49,88.39,16.1,9.55
339,wasilla,1,US,1523876160,80,61.58,-149.44,37.4,2.39
340,broome,40,GB,1523879760,58,52.47,1.45,59.0,10.29
341,baykit,64,RU,1523880214,82,61.68,96.39,31.13,7.99
342,saint anthony,1,US,1523876160,39,43.97,-111.68,55.4,11.41
343,ust-nera,76,RU,1523880214,78,64.57,143.24,11.51,1.28
344,pedra azul,24,BR,1523880214,80,-16.01,-41.28,72.71,5.86
345,polyarnyy,0,RU,1523878200,42,69.2,33.45,44.6,4.47
346,pachmarhi,0,IN,1523880215,25,22.47,78.44,94.67,6.64
347,jalu,0,LY,1523880215,17,29.03,21.55,98.9,4.41
348,sept-iles,20,CA,1523876400,78,50.2,-66.38,12.2,4.7
349,havoysund,75,NO,1523879400,100,71.0,24.66,37.4,5.82
350,byron bay,0,AU,1523876400,88,-28.65,153.62,68.0,5.82
351,bronnitsy,0,RU,1523878200,44,55.42,38.26,68.0,6.71
352,beringovskiy,88,RU,1523880216,94,63.05,179.32,33.11,25.21
353,esperance,40,TT,1523876400,88,10.24,-61.45,77.0,6.76
354,tenenkou,0,ML,1523880217,21,14.46,-4.91,99.89,10.89
355,mitu,36,IR,1523880217,53,36.2,46.09,50.39,5.19
356,carauari,92,BR,1523880217,99,-4.88,-66.9,72.89,3.74
357,regente feijo,0,BR,1523876400,72,-22.22,-51.3,66.2,11.41
358,bumba,8,CD,1523880218,49,2.18,22.47,92.96,5.53
359,tallahassee,20,US,1523878500,80,30.44,-84.28,44.6,4.7
360,menongue,20,AO,1523880016,66,-14.66,17.68,77.93,3.51
361,adolfo lopez mateos,0,MX,1523880218,73,26.8,-109.39,56.96,2.62
362,mehrabpur,0,PK,1523880219,16,27.1,68.42,100.16,10.67
363,betafo,24,MG,1523880219,55,-19.84,46.86,73.52,6.2
364,vila franca do campo,40,PT,1523878200,82,37.72,-25.43,62.6,28.86
365,palora,92,EC,1523880219,100,-1.7,-77.97,59.57,2.95
366,zakupne,0,UA,1523880220,73,49.12,26.33,69.92,10.0
367,lamu,100,ID,1523880220,100,0.57,122.3,72.62,2.17
368,edd,0,ER,1523880220,20,13.93,41.69,102.23,6.64
369,ayorou,0,NE,1523880220,16,14.73,0.92,100.25,11.45
370,maracaibo,75,CO,1523876400,94,3.41,-75.78,68.0,1.5
371,turtas,80,RU,1523880221,66,58.94,69.13,27.8,11.01
372,oga,0,NG,1523880221,72,8.18,5.65,90.71,8.43
373,chippewa falls,90,US,1523877540,85,44.94,-91.39,24.8,10.29
374,slave lake,90,CA,1523877480,97,55.28,-114.77,33.8,5.82
375,vrangel,0,RU,1523880222,87,42.73,133.08,39.14,5.75
376,bundaberg,0,AU,1523880222,98,-24.87,152.35,76.58,9.44
377,balikpapan,92,ID,1523880222,100,-1.24,116.86,76.4,6.76
378,sambava,68,MG,1523880222,100,-14.27,50.17,79.37,14.7
379,mareeba,75,AU,1523876400,88,-16.99,145.42,77.0,12.75
380,babati,80,TZ,1523880223,94,-4.21,35.75,68.57,3.62
381,yining,80,CN,1523880223,77,29.04,114.56,54.89,2.39
382,santa cruz de la palma,75,ES,1523878200,68,28.68,-17.76,69.8,10.29
383,normandin,90,CA,1523876400,58,48.84,-72.53,24.8,10.29
384,oistins,40,BB,1523876400,78,13.07,-59.53,78.8,19.46
385,savalou,0,BJ,1523880224,69,7.93,1.98,93.32,5.75
386,tashara,92,RU,1523880224,88,55.52,83.51,41.39,11.9
387,lumut,88,ID,1523880224,93,-8.46,120.34,75.32,2.73
388,neuquen,0,AR,1523876400,87,-38.95,-68.06,51.8,1.12
389,shingu,56,JP,1523880225,100,33.72,135.99,59.57,2.73
390,formello,0,IT,1523877600,60,42.08,12.4,71.6,6.93
391,kolokani,0,ML,1523880226,22,13.58,-8.03,98.9,8.99
392,puerto escondido,5,MX,1523875500,50,15.86,-97.07,78.8,3.36
393,oranjestad,40,AW,1523876400,78,12.52,-70.03,80.6,18.34
394,dingle,68,PH,1523880226,72,11.0,122.67,82.16,12.68
395,salvador,40,BR,1523880000,62,-12.98,-38.48,86.0,8.05
396,yerbogachen,64,RU,1523880227,61,61.28,108.01,33.2,5.97
397,ouro fino,75,BR,1523876400,100,-22.28,-46.37,62.6,2.24
398,rocha,0,UY,1523880227,81,-34.48,-54.34,65.24,6.98
399,barra patuca,20,HN,1523880227,92,15.8,-84.28,80.09,4.97
400,acajutla,0,SV,1523880228,84,13.59,-89.83,71.27,4.97
401,opuwo,44,NA,1523880228,59,-18.06,13.84,79.1,3.74
402,lethem,64,GY,1523880228,93,3.38,-59.8,77.66,4.97
403,novobirilyussy,76,RU,1523880228,79,56.95,90.69,40.67,9.22
404,kindu,20,CD,1523880228,37,-2.95,25.92,93.86,2.62
405,roald,0,NO,1523879400,71,62.58,6.12,55.4,3.36
406,usinsk,36,RU,1523880229,87,66.0,57.56,15.02,11.01
407,nanakuli,90,US,1523877660,88,21.39,-158.15,75.2,5.82
408,adrar,0,DZ,1523876400,24,27.87,-0.29,80.6,6.93
409,sohag,0,EG,1523880230,30,26.55,31.7,89.81,6.64
410,alexandria,1,US,1523878500,93,31.31,-92.44,39.2,3.62
411,saint-francois,48,FR,1523878200,55,46.42,3.91,60.8,8.05
412,kaitangata,8,NZ,1523880230,75,-46.28,169.85,49.85,18.5
413,puerto rondon,36,CO,1523880231,100,6.28,-71.1,74.6,2.62
414,gargzdai,0,LT,1523877600,63,55.71,21.4,62.6,3.36
415,morondava,8,MG,1523880231,61,-20.3,44.28,90.26,7.76
416,esmeralda,32,CL,1523880231,83,-34.33,-70.9,45.71,0.72
417,lasa,0,CY,1523878200,50,34.92,32.53,78.8,6.93
418,nelson bay,0,AU,1523878200,49,-32.72,152.14,71.6,6.93
419,labuan,75,BN,1523878200,88,5.28,115.24,84.2,4.7
420,aklavik,5,CA,1523876400,54,68.22,-135.01,5.0,5.82
421,mingyue,0,CN,1523880232,54,43.11,128.91,42.02,5.19
422,ahipara,0,NZ,1523880232,99,-35.17,173.16,63.8,8.55
423,jinchang,12,CN,1523880233,35,38.52,102.19,50.3,2.17
424,vanavara,92,RU,1523880233,71,60.35,102.28,34.82,7.76
425,usolye-sibirskoye,0,RU,1523880233,68,52.75,103.66,41.93,6.76
426,marathon,92,CA,1523880234,90,48.72,-86.38,25.28,18.61
427,sibu,75,MY,1523876400,94,2.29,111.83,77.0,2.24
428,halapitan,80,PH,1523880234,95,7.95,125.32,73.16,2.62
429,kambove,76,CD,1523880234,90,-10.88,26.6,70.73,4.74
430,flinders,56,AU,1523876400,52,-34.58,150.85,68.0,19.46
431,rayagada,32,IN,1523880210,39,19.17,83.42,91.34,1.16
432,tocopilla,20,CL,1523880235,100,-22.09,-70.2,60.74,3.06
433,catalina,75,CO,1523876400,100,8.86,-75.38,78.8,6.76
434,hasaki,75,JP,1523878200,76,35.73,140.83,53.6,5.82
435,walvis bay,20,NA,1523876400,57,-22.95,14.51,77.0,10.29
436,sibsagar,64,IN,1523880236,61,26.98,94.64,78.65,2.73
437,fallon,1,US,1523876160,57,46.84,-105.12,32.0,10.29
438,florianopolis,75,BR,1523877600,93,-27.6,-48.55,66.2,8.05
439,saint-leu,0,RE,1523878200,65,-21.15,55.28,86.0,9.17
440,belmonte,20,PT,1523880237,86,40.36,-7.35,54.8,4.07
441,dzaoudzi,20,YT,1523878200,66,-12.79,45.27,89.6,10.29
442,abu samrah,0,SY,1523880237,39,35.3,37.18,76.04,5.41
443,san juan bautista,0,PY,1523880079,91,-26.67,-57.15,70.19,5.97
444,selfoss,40,IS,1523876400,53,63.94,-21.0,51.8,23.04
445,acandi,92,CO,1523880238,100,8.51,-77.28,76.04,0.27
446,baykalsk,0,RU,1523880238,76,51.52,104.15,29.78,5.19
447,sangar,80,RU,1523879984,86,63.92,127.47,31.04,6.31
448,husavik,0,CA,1523880239,71,50.56,-96.99,16.64,3.96
449,caravelas,12,BR,1523880239,97,-17.73,-39.27,81.17,7.65
450,naze,75,NG,1523876400,70,5.43,7.07,87.8,3.36
451,qorveh,8,IR,1523880239,67,35.17,47.8,45.53,10.0
452,ozerki,0,RU,1523878200,27,53.63,83.71,50.0,20.13
453,winnemucca,90,US,1523879760,80,40.97,-117.74,35.6,9.22
454,praia,75,BR,1523876400,73,-20.25,-43.81,71.6,5.82
455,daru,0,SL,1523880240,66,7.99,-10.85,88.64,7.43
456,vredendal,0,ZA,1523880240,29,-31.68,18.49,90.98,6.2
457,phalombe,20,MW,1523880240,74,-15.81,35.65,76.49,6.2
458,roseburg,75,US,1523879760,86,43.22,-123.34,41.0,3.36
459,alyangula,0,AU,1523880241,91,-13.85,136.42,86.57,14.03
460,kropotkin,12,RU,1523880241,42,45.43,40.58,61.82,5.41
461,longyearbyen,75,NO,1523879400,94,78.22,15.63,32.0,1.12
462,hare bay,40,CA,1523876400,63,48.86,-53.99,26.6,20.8
463,umm kaddadah,0,SD,1523880242,10,13.6,26.69,100.43,10.0
464,elizabeth city,1,US,1523878500,72,36.3,-76.22,66.2,17.22
465,banda aceh,92,ID,1523880242,100,5.56,95.32,76.22,2.95
466,srednekolymsk,0,RU,1523880242,93,67.46,153.71,8.63,3.18
467,lima,8,PE,1523880243,71,-12.06,-77.04,56.42,2.28
468,san juan de colon,75,VE,1523876400,88,8.03,-72.26,73.4,2.24
469,dudinka,48,RU,1523880243,92,69.41,86.18,11.87,11.23
470,ponta delgada,40,PT,1523878200,82,37.73,-25.67,62.6,28.86
471,hibbing,90,US,1523878500,85,47.43,-92.94,21.2,6.93
472,gusau,12,NG,1523880122,38,12.17,6.66,98.54,8.21
473,salinopolis,92,BR,1523880244,100,-0.61,-47.36,79.82,7.43
474,auki,12,NG,1523880244,38,12.18,6.51,98.54,8.21
475,los llanos de aridane,75,ES,1523878200,68,28.66,-17.92,69.8,10.29
476,sanaur,0,IN,1523880245,30,30.3,76.46,92.6,4.63
477,chuy,0,UY,1523880245,88,-33.69,-53.46,68.84,9.22
478,huancayo,24,PE,1523880245,94,-12.08,-75.21,29.87,2.17
479,oyem,0,GA,1523880246,60,1.6,11.57,87.29,3.06
480,ola,0,RU,1523876400,85,59.58,151.3,15.8,5.64
481,malkangiri,56,IN,1523880246,47,18.35,81.9,89.09,0.6
482,valenca do piaui,64,BR,1523880246,89,-6.41,-41.75,78.02,3.4
483,rock springs,1,US,1523876040,28,41.59,-109.2,42.8,6.53
484,ambon,0,FR,1523878200,72,47.55,-2.56,59.0,12.75
485,sao jose da coroa grande,88,BR,1523880247,98,-8.9,-35.15,78.56,5.64
486,ilo,0,PE,1523880247,94,-17.65,-71.34,57.77,1.28
487,ojinaga,0,US,1523880248,24,29.56,-104.41,39.95,2.62
488,san rafael abajo,0,CR,1523876400,68,9.89,-84.08,68.0,8.05
489,zenzeli,0,RU,1523880248,38,45.92,47.05,60.74,8.32
490,san borja,0,BO,1523880249,84,-14.86,-66.75,71.09,3.85
491,agua dulce,40,MX,1523875380,82,18.14,-94.15,64.4,8.99
492,yangjiang,44,CN,1523880249,100,21.85,111.96,66.23,16.71
493,mount isa,0,AU,1523876400,43,-20.73,139.49,73.4,8.05
494,urucui,44,BR,1523880250,55,-7.23,-44.56,85.04,4.97
495,medicine hat,75,CA,1523876400,86,50.04,-110.68,35.6,6.93
496,tura,0,IN,1523880250,88,25.52,90.21,75.68,2.84
497,lavumisa,92,ZA,1523880250,68,-27.31,31.88,74.15,3.96
498,tuy hoa,80,VN,1523880251,89,13.08,109.3,78.47,8.88
499,muros,75,ES,1523878200,71,42.77,-9.06,53.6,14.99
500,wuhu,0,CN,1523880251,69,31.35,118.43,53.27,5.08
501,jucurutu,48,BR,1523880251,93,-6.03,-37.02,79.64,4.74
502,emerald,32,AU,1523880252,53,-23.53,148.16,77.93,6.98
503,atar,0,MR,1523880252,25,20.52,-13.05,89.0,4.74
504,shenzhen,40,CN,1523878200,88,22.54,114.05,64.4,4.7
505,sidi ali,0,DZ,1523880252,72,36.1,0.42,67.76,15.26
506,hetauda,75,NP,1523877600,41,27.43,85.03,77.0,12.75
507,chipinge,32,ZW,1523880253,71,-20.19,32.62,75.77,6.2
508,cabildo,90,CL,1523880000,93,-32.43,-71.07,53.6,0.72
509,san andres,24,PH,1523880253,92,13.32,122.68,84.68,15.59
510,goulburn,44,AU,1523880254,75,-34.75,149.72,60.02,9.55
511,escanaba,90,US,1523876160,86,45.75,-87.06,26.6,8.05
512,nago,0,IT,1523877600,56,45.88,10.89,69.8,11.41
513,petropavl,90,KZ,1523878200,69,54.87,69.13,37.4,13.42
514,woodland,90,US,1523879580,81,45.91,-122.74,42.8,5.82
515,xining,44,CN,1523880255,52,36.62,101.77,46.16,2.39
516,el sauzal,75,AR,1523876400,93,-24.3,-64.96,59.0,3.36
517,kutum,0,SD,1523880255,16,14.2,24.66,93.77,8.32
518,mugur-aksy,92,RU,1523880255,99,50.38,90.44,36.08,2.62
519,touros,88,BR,1523880256,100,-5.2,-35.46,78.29,10.78
520,terney,0,RU,1523880256,68,45.05,136.61,41.93,6.98
521,yaan,64,NG,1523880256,66,7.38,8.57,90.35,10.45
522,jiangkou,0,CN,1523880256,83,30.7,117.56,52.91,2.62
523,rantepao,68,ID,1523880257,99,-2.97,119.9,70.82,2.06
524,bolivar,90,US,1523879520,63,37.61,-93.41,30.2,17.22
525,samarkand,75,UZ,1523878200,51,39.65,66.98,62.6,4.7
526,alta floresta,0,BR,1523876400,94,-9.87,-56.08,75.2,3.18
527,zharkovskiy,32,RU,1523880258,49,55.85,32.27,69.47,9.1
528,axim,8,GH,1523880258,95,4.87,-2.24,83.51,11.23
529,blythe,1,US,1523875920,18,33.61,-114.59,71.6,10.29
530,tarakan,56,ID,1523880258,100,3.3,117.63,77.3,3.74
531,danane,0,CI,1523880259,86,7.26,-8.15,86.3,5.53
532,solnechnyy,0,RU,1523880259,56,50.72,136.64,36.8,6.64
533,tianpeng,0,CN,1523880259,76,28.88,112.34,61.46,3.18
534,ambilobe,64,MG,1523880259,47,-13.19,49.05,89.9,12.46
535,ha giang,100,VN,1523880260,95,22.83,104.99,62.0,0.16
536,narsaq,20,GL,1523879400,39,60.91,-46.05,30.2,3.36
537,luancheng,0,CN,1523876400,52,37.88,114.65,66.2,11.18
538,awbari,0,LY,1523880260,15,26.59,12.77,85.04,6.87
539,viedma,56,AR,1523880261,73,-40.81,-62.99,71.09,17.49
540,wana,92,PK,1523880261,100,32.31,69.59,51.65,3.06
541,alofi,0,NU,1523876400,69,-19.06,-169.92,77.0,14.99
542,mikhaylovsk,80,RU,1523880261,50,56.44,59.12,33.74,9.22
543,mandera,8,ET,1523880262,76,3.94,41.86,87.74,10.67
544,miramar,0,CR,1523876400,68,10.09,-84.73,68.0,8.05
545,durban,90,FR,1523878200,93,43.54,0.58,57.2,4.7
546,sun city west,20,US,1523876280,27,33.66,-112.34,66.2,3.36
547,luis correia,75,BR,1523876400,94,-2.88,-41.67,78.8,1.12
548,lorengau,0,PG,1523880263,99,-2.02,147.27,83.69,7.99
549,augusto correa,36,BR,1523880264,91,-1.02,-46.63,82.16,3.96
550,mumford,8,GH,1523880264,86,5.26,-0.76,87.74,7.54
551,komsomolskiy,48,RU,1523880264,88,67.55,63.78,8.18,14.03
552,ikoma,0,JP,1523878200,62,34.69,135.7,57.2,14.99
553,susaki,0,JP,1523876400,67,33.42,133.28,57.2,2.24
554,warburg,40,DE,1523879400,59,51.49,9.15,66.2,8.05
555,le port,92,FR,1523880265,79,42.87,1.37,44.09,1.95
556,beni mazar,0,EG,1523880265,22,28.5,30.8,92.24,4.85
557,la asuncion,68,EC,1523880266,94,-1.64,-78.74,42.11,1.28
558,winneba,20,GH,1523876400,62,5.35,-0.62,89.6,11.41
559,merauke,0,ID,1523880266,86,-8.49,140.4,83.33,12.46
560,kawalu,100,ID,1523880266,83,-7.38,108.21,72.89,1.16
561,gombe,44,NG,1523880266,23,10.28,11.17,103.94,4.74
562,rach gia,36,VN,1523880233,64,10.02,105.08,87.92,12.24
563,vila velha,75,BR,1523876400,94,-3.71,-38.6,75.2,3.36
564,mattru,8,SL,1523880267,60,7.62,-11.83,92.15,3.85
565,kailua,90,US,1523877660,88,21.39,-157.74,75.2,5.82
566,maymyo,20,MM,1523874600,35,22.03,96.47,98.6,4.7
567,jhang,75,PK,1523876400,69,33.67,72.7,75.2,4.7
568,manzil salim,20,TN,1523876400,45,35.86,8.48,66.2,4.7
569,wahpeton,1,US,1523879520,85,46.27,-96.61,24.8,6.93
570,wewak,0,PG,1523880269,94,-3.55,143.63,77.93,2.73
571,tezu,32,IN,1523880269,61,27.93,96.16,65.96,1.28
572,waddan,0,LY,1523880269,21,29.16,16.14,83.87,8.43
573,vao,36,EE,1523880269,94,59.1,26.19,56.15,6.98
574,jumla,44,NP,1523880269,94,29.28,82.18,40.04,1.61
575,ekuvukeni,8,ZA,1523880270,72,-28.47,30.16,69.2,3.96
576,cairns,75,AU,1523876400,88,-16.92,145.77,77.0,12.75
577,roseau,1,US,1523878560,68,48.85,-95.76,24.8,6.93
578,tilichiki,68,RU,1523880270,79,60.47,166.1,21.77,3.74
579,chumikan,48,RU,1523880271,60,54.72,135.31,38.06,5.75
